city,state,lat,lon,aqi
Delhi,Delhi,28.6139,77.209,312
Gurugram,Haryana,28.4595,77.0266,307
Ghaziabad,Uttar Pradesh,28.6692,77.4538,298
Mumbai,Maharashtra,19.076,72.8777,145
Kolkata,West Bengal,22.5726,88.3639,172
Chennai,Tamil Nadu,13.0827,80.2707,132
Bengaluru,Karnataka,12.9716,77.5946,118
Patna,Bihar,25.5941,85.1376,221
Lucknow,Uttar Pradesh,26.8467,80.9462,245
Jaipur,Rajasthan,26.9124,75.7873,190
